{
    "success": true,
    "count": 1693,
    "data": [
        {
            "type": "學校",
            "name": "臺北市立螢橋國民中學",
            "capacity": 52,
            "supportedDisasters": 3,
            "accesibility": false,
            "address": "汀州路三段四號",
            "latitude": 25.0160821,
            "longitude": 121.530843,
            "telephone": "02-23688667#500",
            "sizeInSquareMeters": 209
        },
        {
            "type": "學校",
            "name": "臺北市立大學附設實驗國民小學",
            "capacity": 157,
            "supportedDisasters": 3,
            "accesibility": false,
            "address": "公園路29號",
            "latitude": 25.0361928,
            "longitude": 121.5155331,
            "telephone": "02-23110395#840",
            "sizeInSquareMeters": 1062
        },
        {
            "type": "學校",
            "name": "臺北市立弘道國民中學",
            "capacity": 130,
            "supportedDisasters": 3,
            "accesibility": false,
            "address": "公園路21號",
            "latitude": 25.0375713,
            "longitude": 121.5152866,
            "telephone": "02-23715520#500",
            "sizeInSquareMeters": 520
        },
        {
            "type": "公園/綠地",
            "name": "二二八和平公園",
            "capacity": 5424,
            "supportedDisasters": 3,
            "accesibility": false,
            "address": "凱達格蘭大道3號",
            "latitude": 25.0402838,
            "longitude": 121.5154888,
            "telephone": "02-23032451",
            "sizeInSquareMeters": 21696
        },
        {
            "type": "體育場館/運動中心",
            "name": "臺北市中正運動中心",
            "capacity": 250,
            "supportedDisasters": 3,
            "accesibility": false,
            "address": "信義路一段1號",
            "latitude": 25.0385177,
            "longitude": 121.5193367,
            "telephone": "02-25702330#6425",
            "sizeInSquareMeters": 0
        },
        {
            "type": "學校",
            "name": "臺北市立中正國民中學",
            "capacity": 300,
            "supportedDisasters": 3,
            "accesibility": false,
            "address": "愛國東路158號",
            "latitude": 25.0318973,
            "longitude": 121.5218344,
            "telephone": "02-23916697#501",
            "sizeInSquareMeters": 1800
        },
        {
            "type": "學校",
            "name": "臺北市立第一女子高級中學",
            "capacity": 60,
            "supportedDisasters": 3,
            "accesibility": false,
            "address": "重慶南路一段165號",
            "latitude": 25.038138,
            "longitude": 121.5136262,
            "telephone": "02-23820484#600",
            "sizeInSquareMeters": 500
        },
        {
            "type": "學校",
            "name": "臺北市立古亭國民中學",
            "capacity": 60,
            "supportedDisasters": 3,
            "accesibility": false,
            "address": "中華路二段465號",
            "latitude": 25.024302,
            "longitude": 121.5104141,
            "telephone": "02-23090986#510",
            "sizeInSquareMeters": 1200
        },
        {
            "type": "學校",
            "name": "臺北市立成功高級中學",
            "capacity": 31,
            "supportedDisasters": 3,
            "accesibility": false,
            "address": "濟南路一段71號",
            "latitude": 25.0428752,
            "longitude": 121.5237972,
            "telephone": "23216256#231",
            "sizeInSquareMeters": 300
        },
        {
            "type": "學校",
            "name": "臺北市中正區忠孝國民小學",
            "capacity": 30,
            "supportedDisasters": 2,
            "accesibility": false,
            "address": "忠孝東路二段101號",
            "latitude": 25.0429237,
            "longitude": 121.5318709,
            "telephone": "02-23918170#831",
            "sizeInSquareMeters": 54
        },
        {
            "type": "學校",
            "name": "臺北市中正區東門國民小學",
            "capacity": 100,
            "supportedDisasters": 3,
            "accesibility": false,
            "address": "仁愛路一段2-4號",
            "latitude": 25.038556,
            "longitude": 121.5217978,
            "telephone": "02-23412822#23",
            "sizeInSquareMeters": 400
        },
        {
            "type": "學校",
            "name": "臺北市中正區河堤國民小學",
            "capacity": 72,
            "supportedDisasters": 3,
            "accesibility": false,
            "address": "汀州路二段180號",
            "latitude": 25.0230963,
            "longitude": 121.5223468,
            "telephone": "02-23677144#831",
            "sizeInSquareMeters": 216
        },
        {
            "type": "學校",
            "name": "臺北市中正區南門國民小學",
            "capacity": 30,
            "supportedDisasters": 3,
            "accesibility": false,
            "address": "廣州街6號",
            "latitude": 25.0351764,
            "longitude": 121.5091203,
            "telephone": "02-23715052#401",
            "sizeInSquareMeters": 100
        },
        {
            "type": "學校",
            "name": "臺北市立南門國民中學",
            "capacity": 151,
            "supportedDisasters": 3,
            "accesibility": false,
            "address": "廣州街6號",
            "latitude": 25.0351764,
            "longitude": 121.5091203,
            "telephone": "02-23142775#361",
            "sizeInSquareMeters": 1512
        },
        {
            "type": "學校",
            "name": "臺北市立建國高級中學",
            "capacity": 300,
            "supportedDisasters": 2,
            "accesibility": false,
            "address": "南海路56號",
            "latitude": 25.0303072,
            "longitude": 121.512377,
            "telephone": "02-23034381#501",
            "sizeInSquareMeters": 2609
        },
        {
            "type": "學校",
            "name": "臺北市國語實驗國民小學",
            "capacity": 49,
            "supportedDisasters": 2,
            "accesibility": false,
            "address": "南海路58號",
            "latitude": 25.0307616,
            "longitude": 121.5105605,
            "telephone": "02-23033555#500",
            "sizeInSquareMeters": 0
        },
        {
            "type": "學校",
            "name": "臺北市中正區螢橋國民小學",
            "capacity": 303,
            "supportedDisasters": 3,
            "accesibility": false,
            "address": "詔安街29號",
            "latitude": 25.0256168,
            "longitude": 121.5146969,
            "telephone": "02-23054620#109",
            "sizeInSquareMeters": 500
        },
        {
            "type": "捷運站體",
            "name": "中正紀念堂站",
            "capacity": 1974,
            "supportedDisasters": 1,
            "accesibility": false,
            "address": "臺北市中正區羅斯福路1段8之1號B1",
            "latitude": 25.0166334,
            "longitude": 121.531919,
            "telephone": "25505600#4112",
            "sizeInSquareMeters": 7897
        },
        {
            "type": "捷運站體",
            "name": "古亭站",
            "capacity": 1828,
            "supportedDisasters": 1,
            "accesibility": false,
            "address": "臺北市中正區羅斯福路2段164之1號B1",
            "latitude": 25.0266827,
            "longitude": 121.522682,
            "telephone": "25505600#5102"
        }
    ]
}
        
    